City_ID,City,Lat,Lng,Max Temp,Humidity,Cloudiness,Wind Speed,Country,Date
0,gat,31.61,34.7642,60.4,61,13,5.57,IL,1680474700
1,balikpapan,-1.2675,116.8289,76.19,94,40,6.91,ID,1680474701
2,barrow,71.2906,-156.7887,6.82,78,100,11.5,US,1680474635
3,rikitea,-23.1203,-134.9692,80.35,81,29,16.08,PF,1680474701
4,hilo,19.7297,-155.09,78.28,89,75,8.05,US,1680474701
5,chuy,-33.6971,-53.4616,62.37,78,81,6.04,UY,1680474695
6,severo-kurilsk,50.6789,156.125,31.46,90,100,11.74,RU,1680474657
7,vaini,-21.2,-175.2,82.56,69,20,13.8,TO,1680474701
8,gravdal,68.1214,13.5031,33.69,55,0,11.5,NO,1680474701
9,yakeshi,49.2833,120.7333,24.17,69,100,19.86,CN,1680474701
10,new norfolk,-42.7826,147.0587,59.92,71,60,3.11,AU,1680474701
11,nikolskoye,59.7035,30.7861,30.09,96,100,12.03,RU,1680474634
12,arlit,18.7369,7.3853,76.08,5,100,10.09,NE,1680474701
13,yellowknife,62.456,-114.3525,12.72,62,75,0.0,CA,1680474633
14,butaritari,3.0707,172.7902,81.48,78,33,10.92,KI,1680474701
15,mataura,-46.1927,168.8643,56.48,56,70,2.71,NZ,1680474701
16,castro,-24.7911,-50.0119,62.15,92,60,6.64,BR,1680474701
17,mahebourg,-20.4081,57.7,79.25,89,75,6.91,MU,1680474636
18,tiksi,71.6872,128.8694,18.19,80,100,18.37,RU,1680474702
19,tomatlan,19.9333,-105.25,84.4,47,90,7.31,MX,1680474702
20,staroshcherbinovskaya,46.6311,38.6742,44.92,73,9,7.34,RU,1680474702
21,roald,62.5833,6.1333,43.32,65,75,9.22,NO,1680474702
22,airai,-8.9266,125.4092,61.47,89,80,2.51,TL,1680474657
23,arraial do cabo,-22.9661,-42.0278,75.06,78,75,9.22,BR,1680474702
24,bonthe,7.5264,-12.505,79.74,87,1,5.59,SL,1680474702
25,punta arenas,-53.15,-70.9167,59.11,41,75,8.05,CL,1680474633
26,mar del plata,-38.0023,-57.5575,69.82,72,0,5.75,AR,1680474608
27,kapaa,22.0752,-159.319,81.19,76,20,8.05,US,1680474702
28,jojoima,7.8792,-10.7878,76.03,90,49,3.53,SL,1680474703
29,bredasdorp,-34.5322,20.0403,63.72,91,2,6.51,ZA,1680474701
30,pisco,-13.7,-76.2167,78.85,78,0,19.57,PE,1680474703
31,touros,-5.1989,-35.4608,78.44,81,100,6.4,BR,1680474703
32,chokurdakh,70.6333,147.9167,-7.01,91,72,12.53,RU,1680474703
33,plymouth,41.8334,-70.8328,48.02,28,0,11.5,US,1680474703
34,egvekinot,66.3167,-179.1667,1.51,94,100,5.86,RU,1680474703
35,ushuaia,-54.8,-68.3,53.26,54,40,8.05,AR,1680474636
36,hay river,60.8156,-115.7999,15.76,79,100,5.75,CA,1680474703
37,chaves,33.3834,-104.4505,84.61,6,0,8.05,US,1680474703
38,kaeo,-35.1,173.7833,68.32,80,95,6.46,NZ,1680474703
39,ponta delgada,37.7333,-25.6667,56.12,71,20,9.22,PT,1680474703
40,busselton,-33.65,115.3333,62.69,84,0,14.38,AU,1680474624
41,lekoni,-1.5843,14.2591,78.67,69,92,3.04,GA,1680474703
42,paracuru,-3.41,-39.0306,81.1,85,100,2.75,BR,1680474704
43,abu kamal,34.4506,40.9171,61.36,51,39,4.12,SY,1680474704
44,erzin,36.9559,36.2,53.37,86,80,2.64,TR,1680474704
45,wana,32.2989,69.5725,53.58,84,76,2.01,PK,1680474704
46,ancud,-41.8697,-73.8203,51.98,73,6,3.94,CL,1680474704
47,cape town,-33.9258,18.4232,70.38,86,75,10.36,ZA,1680474704
48,fortuna,40.5982,-124.1573,50.34,87,100,4.68,US,1680474580
49,bridlington,54.0831,-0.1919,40.89,72,6,9.31,GB,1680474704
50,denpasar,-8.65,115.2167,78.46,100,40,6.91,ID,1680474524
51,mabaruma,8.2,-59.7833,75.58,82,93,4.94,GY,1680474704
52,port elizabeth,-33.918,25.5701,70.32,70,0,14.97,ZA,1680474705
53,the valley,18.217,-63.0578,78.94,78,40,18.41,AI,1680474688
54,hithadhoo,-0.6,73.0833,81.86,71,13,6.24,MV,1680474705
55,sao joao da barra,-21.6403,-41.0511,77.09,75,58,11.45,BR,1680474705
56,narsaq,60.9167,-46.05,39.42,81,100,8.52,GL,1680474705
57,mudgee,-32.5943,149.5871,62.62,64,5,12.15,AU,1680474705
58,hofn,64.2539,-15.2082,37.71,96,100,4.32,IS,1680474688
59,albany,42.6001,-73.9662,41.65,25,8,7.0,US,1680474705
60,wenling,28.3669,121.36,55.4,83,100,3.51,CN,1680474705
61,aswan,24.0934,32.907,69.67,19,34,8.52,EG,1680474699
62,jinotega,13.0917,-86.0018,83.68,41,40,0.0,NI,1680474705
63,ouadda,8.0777,22.4007,71.17,25,6,0.94,CF,1680474705
64,starodub,52.5844,32.7633,42.91,92,100,4.88,RU,1680474705
65,kodiak,57.79,-152.4072,36.91,48,0,12.66,US,1680474705
66,dikson,73.5069,80.5464,-15.7,95,100,12.86,RU,1680474672
67,san juan,-31.5375,-68.5364,75.94,36,0,8.52,AR,1680474705
68,merauke,-8.4667,140.3333,80.65,82,100,5.53,ID,1680474706
69,charagua,-19.8,-63.2167,81.97,64,6,5.75,BO,1680474706
70,cowra,-33.8333,148.6833,68.22,54,0,10.33,AU,1680474706
71,jashpurnagar,22.9,84.15,66.69,42,18,3.27,IN,1680474706
72,orsha,54.5153,30.4053,30.04,96,100,13.58,BY,1680474706
73,east london,-33.0153,27.9116,69.55,80,100,3.91,ZA,1680474706
74,kahului,20.8947,-156.47,82.42,54,75,16.11,US,1680474706
75,jamestown,42.097,-79.2353,45.01,33,0,4.61,US,1680474582
76,starosubkhangulovo,53.1031,57.4423,27.43,93,1,4.0,RU,1680474706
77,haimen,23.1935,116.6142,64.29,80,30,17.67,CN,1680474706
78,fayaoue,-20.65,166.5333,81.46,75,22,3.4,NC,1680474706
79,shimoda,34.6667,138.95,51.1,69,97,19.33,JP,1680474689
80,quatre cocos,-20.2078,57.7625,79.09,85,88,7.52,MU,1680474706
81,willmar,45.1219,-95.0433,39.38,75,0,11.5,US,1680474706
82,rawah,34.4816,41.9093,60.49,55,47,5.39,IQ,1680474707
83,menongue,-14.6585,17.691,61.84,93,96,1.28,AO,1680474707
84,hermanus,-34.4187,19.2345,65.8,93,52,2.19,ZA,1680474707
85,acarau,-2.8856,-40.12,76.35,88,100,4.14,BR,1680474707
86,angoche,-16.2325,39.9086,75.65,90,100,10.36,MZ,1680474707
87,wuwei,37.9281,102.6414,39.18,47,100,0.69,CN,1680474707
88,hambantota,6.1241,81.1185,73.51,91,2,3.87,LK,1680474708
89,saint-philippe,-21.3585,55.7679,76.59,82,98,8.95,RE,1680474708
90,cidreira,-30.1811,-50.2056,68.86,65,9,7.74,BR,1680474708
91,loiza,18.4313,-65.8802,81.28,69,40,17.27,PR,1680474708
92,minsk,53.9,27.5667,29.95,92,100,16.78,BY,1680474708
93,port alfred,-33.5906,26.891,69.19,94,100,0.72,ZA,1680474708
94,kavieng,-2.5744,150.7967,83.84,74,99,12.17,PG,1680474708
95,talcahuano,-36.7167,-73.1167,62.28,67,0,11.5,CL,1680474633
96,lebu,-37.6167,-73.65,54.09,82,0,14.58,CL,1680474645
97,avarua,-21.2078,-159.775,80.65,74,75,8.05,CK,1680474708
98,tasiilaq,65.6145,-37.6368,28.56,91,100,6.06,GL,1680474599
99,sorong,-0.8833,131.25,79.07,85,100,23.42,ID,1680474708
100,oro valley,32.3909,-110.9665,82.4,10,0,5.01,US,1680474708
101,hobart,-42.8794,147.3294,60.26,71,20,9.22,AU,1680474708
102,korla,41.7597,86.1469,32.29,44,0,6.08,CN,1680474708
103,alta floresta,-9.8756,-56.0861,73.22,100,75,3.44,BR,1680474708
104,basco,20.4487,121.9702,75.02,75,66,19.28,PH,1680474709
105,puerto ayora,-0.7393,-90.3518,85.96,89,84,8.01,EC,1680474671
106,vallenar,-28.5708,-70.7581,66.88,69,4,4.07,CL,1680474709
107,chancay,-11.5714,-77.2672,73.89,88,40,9.33,PE,1680474709
108,tygda,53.1167,126.3333,33.82,96,100,6.11,RU,1680474709
109,kyabram,-36.3167,145.05,63.0,64,0,9.89,AU,1680474709
110,ahmadpur,18.7,76.9333,77.72,26,30,5.77,IN,1680474709
111,tuktoyaktuk,69.4541,-133.0374,1.4,71,20,11.5,CA,1680474709
112,coihaique,-45.5752,-72.0662,52.41,66,75,4.61,CL,1680474709
113,georgetown,5.4112,100.3354,78.73,87,20,2.3,MY,1680474629
114,haines junction,60.7522,-137.5108,28.35,40,100,2.3,CA,1680474709
115,arrifes,37.7667,-25.7,53.85,71,20,9.22,PT,1680474709
116,hamilton,39.1834,-84.5333,57.43,53,0,8.05,US,1680474094
117,santa maria,-29.6842,-53.8069,67.3,68,0,4.61,BR,1680474216
118,taoudenni,22.6783,-3.9836,84.02,6,0,9.78,ML,1680474709
119,bengkulu,-3.8004,102.2655,73.54,91,99,4.61,ID,1680474709
120,banda aceh,5.5577,95.3222,81.61,75,97,11.56,ID,1680474710
121,torbay,47.6666,-52.7314,39.97,93,100,13.8,CA,1680474633
122,trairi,-3.2778,-39.2689,75.45,88,100,1.83,BR,1680474414
123,ambilobe,-13.2,49.05,72.27,96,90,2.93,MG,1680474710
124,vuktyl,63.8567,57.3094,20.08,94,96,3.96,RU,1680474710
125,neryungri,56.6709,124.6491,5.18,96,100,4.34,RU,1680474710
126,lagos,6.5833,3.75,80.4,86,75,3.38,NG,1680474650
127,gushikawa,26.3544,127.8686,67.23,85,20,10.36,JP,1680474710
128,beloha,-25.1667,45.05,70.81,89,48,9.62,MG,1680474710
129,nanortalik,60.1432,-45.2371,30.11,92,100,6.44,GL,1680474710
130,havre-saint-pierre,50.2334,-63.5986,33.8,80,75,17.27,CA,1680474710
131,baza,37.4907,-2.7726,54.57,28,34,6.02,ES,1680474710
132,husavik,66.0449,-17.3389,37.09,76,100,6.42,IS,1680474710
133,kaitangata,-46.2817,169.8464,57.92,71,49,5.48,NZ,1680474710
134,walvis bay,-22.9575,14.5053,59.95,88,2,3.44,NA,1680474710
135,college,64.8569,-147.8028,31.46,84,100,11.5,US,1680474710
136,vangaindrano,-23.35,47.6,69.26,98,56,2.42,MG,1680474710
137,illintsi,49.1048,29.2177,43.74,96,100,4.41,UA,1680474711
138,thompson,55.7435,-97.8558,10.56,48,20,12.66,CA,1680474711
139,norman wells,65.282,-126.8329,17.64,57,75,4.61,CA,1680474620
140,khatanga,71.9667,102.5,8.15,96,100,9.75,RU,1680474643
141,lovington,32.944,-103.3485,81.32,8,0,3.0,US,1680474413
142,ponta do sol,32.6667,-17.1,66.7,82,0,3.22,PT,1680474694
143,upernavik,72.7868,-56.1549,-22.2,99,48,3.49,GL,1680474646
144,sisimiut,66.9395,-53.6735,8.82,77,100,6.78,GL,1680474711
145,atuona,-9.8,-139.0333,81.07,76,40,14.45,PF,1680474711
146,analipsis,35.3167,25.5667,69.94,42,48,11.21,GR,1680474711
147,qaanaaq,77.484,-69.3632,-14.22,64,4,1.61,GL,1680474711
148,carlagan,14.975,122.0456,79.0,81,84,5.21,PH,1680474711
149,paamiut,61.994,-49.6678,29.48,64,3,10.74,GL,1680474642
150,cherskiy,68.75,161.3,-17.95,93,30,4.81,RU,1680474711
151,beringovskiy,63.05,179.3167,23.67,85,99,9.01,RU,1680474711
152,matamoros,25.5333,-103.25,91.51,16,75,11.5,MX,1680474712
153,along,28.1667,94.7667,57.54,97,100,0.98,IN,1680474712
154,tecoanapa,16.5167,-98.75,90.7,41,2,8.88,MX,1680474712
155,poum,-20.2333,164.0167,80.74,73,8,9.33,NC,1680474712
156,alofi,-19.0595,-169.9187,84.09,70,63,18.41,NU,1680474638
157,shelburne,44.0787,-80.2041,37.76,53,65,8.57,CA,1680474712
158,tuatapere,-46.1333,167.6833,56.86,55,93,4.18,NZ,1680474712
159,baculin,7.4525,126.5842,77.94,86,97,4.99,PH,1680474712
160,quimper,48.0,-4.1,46.98,87,100,3.44,FR,1680474712
161,talnakh,69.4865,88.3972,15.17,96,100,9.8,RU,1680474712
162,mugur-aksy,50.35,90.5,-7.6,66,0,4.34,RU,1680474712
163,banjar,-8.19,114.9675,80.02,78,100,3.42,ID,1680474712
164,baykit,61.67,96.37,10.35,99,99,2.73,RU,1680474712
165,bathsheba,13.2167,-59.5167,79.41,69,40,19.57,BB,1680474688
166,south lake tahoe,38.9332,-119.9844,49.89,56,20,23.0,US,1680474466
167,faya,18.3851,42.4509,59.11,78,34,2.86,SA,1680474654
168,cruzeiro do sul,-29.5128,-51.9853,70.09,81,6,4.0,BR,1680474713
169,cabangahan,9.0781,122.9469,80.22,74,100,5.59,PH,1680474713
170,shingu,33.7333,135.9833,56.12,85,100,12.28,JP,1680474674
171,tilichiki,60.4667,166.1,27.19,94,100,1.88,RU,1680474658
172,bluff,-46.6,168.3333,56.8,63,92,7.47,NZ,1680474713
173,bethel,41.3712,-73.414,48.76,27,0,13.8,US,1680474713
174,grand gaube,-20.0064,57.6608,79.38,76,93,3.0,MU,1680474713
175,kununurra,-15.7667,128.7333,73.38,94,64,4.61,AU,1680474713
176,scarborough,54.2797,-0.4044,35.78,86,6,3.0,GB,1680474530
177,san patricio,28.017,-97.5169,88.18,52,100,17.13,US,1680474713
178,kanigiri,15.4,79.5167,80.01,75,99,3.71,IN,1680474713
179,sal rei,16.1833,-22.9167,72.05,84,0,13.87,CV,1680474713
180,noumea,-22.2763,166.4572,82.99,99,20,9.15,NC,1680474713
181,pevek,69.7008,170.3133,-15.95,99,100,2.91,RU,1680474644
182,ilulissat,69.2167,-51.1,5.02,85,99,4.61,GL,1680474713
183,eyl,7.9803,49.8164,80.82,79,23,5.28,SO,1680474713
184,constitucion,-35.3333,-72.4167,58.87,71,9,14.41,CL,1680474713
185,iquira,2.6487,-75.6346,70.47,96,94,2.3,CO,1680474713
186,luderitz,-26.6481,15.1594,60.46,86,4,12.21,NA,1680474714
187,broome,42.2506,-75.833,39.33,36,0,5.75,US,1680474714
188,xunchang,28.4543,104.715,64.89,93,85,2.62,CN,1680474714
189,kunashak,55.7032,61.5498,31.08,97,10,8.28,RU,1680474714
190,mattru,7.6244,-11.8332,78.53,88,13,2.37,SL,1680474714
191,indramayu,-6.3264,108.32,77.45,77,100,5.01,ID,1680474714
192,vitim,59.4511,112.5578,4.57,97,96,5.64,RU,1680474714
193,sitka,57.0531,-135.33,42.69,70,75,4.61,US,1680474714
194,qiongshan,20.0058,110.3542,76.98,88,40,8.95,CN,1680474714
195,carnarvon,-24.8667,113.6333,74.98,78,66,10.38,AU,1680474714
196,dryden,49.7833,-92.7503,39.49,41,100,10.36,CA,1680474714
197,cap malheureux,-19.9842,57.6142,79.47,76,96,3.0,MU,1680474714
198,sabzevar,36.2126,57.6819,50.52,32,69,3.83,IR,1680474714
199,rawson,-43.3002,-65.1023,59.99,62,23,18.1,AR,1680474668
200,mardin,37.3131,40.7436,44.38,91,81,1.14,TR,1680474714
201,takoradi,4.8845,-1.7554,79.99,87,33,4.18,GH,1680474714
202,kirchhundem,51.1,8.1,34.43,90,7,3.76,DE,1680474715
203,sovetskiy,61.3614,63.5842,30.49,94,68,2.33,RU,1680474715
204,kalmunai,7.4167,81.8167,74.93,91,10,5.93,LK,1680474715
205,alenquer,-1.9417,-54.7383,72.59,97,93,3.38,BR,1680474715
206,goundam,16.4145,-3.6708,81.84,7,1,7.38,ML,1680474715
207,aktash,50.3,87.7333,-9.11,71,30,5.53,RU,1680474715
208,lompoc,34.6391,-120.4579,68.77,73,75,27.0,US,1680474688
209,ribeira grande,38.5167,-28.7,56.77,66,68,3.0,PT,1680474715
210,labrea,-7.2586,-64.7981,73.92,96,55,2.98,BR,1680474715
211,victoria,22.2855,114.1577,71.65,91,95,1.01,HK,1680474715
212,oranjestad,12.524,-70.027,80.91,80,40,23.02,AW,1680474715
213,bucerias,20.75,-105.3333,78.78,73,20,10.36,MX,1680474607
214,fairbanks,64.8378,-147.7164,32.49,83,75,11.5,US,1680474517
215,lukulu,-14.3707,23.242,64.89,96,100,4.83,ZM,1680474715
216,baft,29.234,56.6057,43.84,28,0,1.63,IR,1680474715
217,fort wellington,6.4,-57.6,76.82,82,88,9.35,GY,1680474715
218,barcelos,41.5388,-8.6151,56.91,71,100,3.22,PT,1680474502
219,mandera,3.9366,41.867,81.81,65,100,13.8,KE,1680474715
220,saskylakh,71.9167,114.0833,16.97,96,100,3.78,RU,1680474675
221,owando,-0.4819,15.8999,74.71,77,58,2.64,CG,1680474716
222,el reno,35.5323,-97.955,78.12,57,0,25.32,US,1680474716
223,clyde river,70.4692,-68.5914,-9.17,77,0,6.91,CA,1680474634
224,nema,57.5067,50.5011,36.77,96,100,5.19,RU,1680474716
225,usinsk,65.9939,57.5281,12.38,92,54,9.17,RU,1680474716
226,svendborg,55.0598,10.6068,36.66,64,0,3.2,DK,1680474716
227,mocuba,-16.8392,36.9856,67.77,95,96,3.22,MZ,1680474716
228,puerto escondido,15.85,-97.0667,88.63,66,0,9.22,MX,1680474508
229,ostrovnoy,68.0531,39.5131,28.81,55,100,8.7,RU,1680474716
230,matara,5.9485,80.5353,73.62,95,4,3.09,LK,1680474716
231,port augusta,-32.5,137.7667,65.52,31,83,4.25,AU,1680474640
232,ambon,-3.6954,128.1814,73.54,94,20,10.36,ID,1680474716
233,san luis,-33.295,-66.3356,69.48,59,91,2.21,AR,1680474593
234,codrington,-38.2667,141.9667,56.46,72,0,6.71,AU,1680474691
235,hobyo,5.3505,48.5268,83.01,76,52,12.71,SO,1680474716
236,coahuayana,18.7333,-103.6833,84.94,48,97,6.15,MX,1680474638
237,leningradskiy,69.3833,178.4167,-6.63,86,100,16.11,RU,1680474657
238,vardo,70.3705,31.1107,24.78,86,100,11.5,NO,1680474716
239,cangucu,-31.395,-52.6756,60.01,76,76,5.23,BR,1680474716
240,foam lake,51.65,-103.5343,19.42,93,100,12.77,CA,1680474716
241,kapoeta,4.7717,33.5903,82.08,45,98,3.69,SS,1680474716
242,terekli-mekteb,44.1671,45.8698,46.49,66,13,8.21,RU,1680474716
243,chumikan,54.7183,135.315,24.76,75,100,3.36,RU,1680474707
244,port lincoln,-34.7333,135.8667,65.03,57,61,6.91,AU,1680474684
245,eureka,40.8021,-124.1637,50.61,87,100,3.0,US,1680474686
246,luanda,-8.8368,13.2343,82.4,78,0,8.05,AO,1680474532
247,nola,40.922,14.5329,57.92,92,100,7.63,IT,1680474717
248,half moon bay,37.4636,-122.4286,60.03,67,100,21.85,US,1680474628
249,cabo san lucas,22.8909,-109.9124,85.6,50,75,8.05,MX,1680474631
250,maumere,-8.6199,122.2111,80.33,75,97,3.0,ID,1680474717
251,catamarca,-28.4696,-65.7852,77.58,89,45,2.37,AR,1680474717
252,sao miguel do araguaia,-13.275,-50.1628,75.13,86,96,2.04,BR,1680474527
253,solnechnyy,50.7214,136.6319,39.79,92,66,2.17,RU,1680474717
254,berlevag,70.8578,29.0864,26.55,74,88,17.27,NO,1680474717
255,meiganga,6.5167,14.3,71.24,66,67,1.57,CM,1680474717
256,bernalillo,35.05,-106.6673,75.7,8,0,20.71,US,1680474717
257,meulaboh,4.1363,96.1285,75.87,85,100,4.56,ID,1680474717
258,sao francisco de assis,-29.5503,-55.1311,65.52,50,37,8.19,BR,1680474717
259,acapulco,16.8634,-99.8901,87.62,58,0,9.22,MX,1680474717
260,esperance,-33.8667,121.9,64.83,75,69,6.93,AU,1680474717
261,constantine,36.365,6.6147,45.81,87,75,17.27,DZ,1680474717
262,mount isa,-20.7333,139.5,69.57,43,53,5.75,AU,1680474718
263,comodoro rivadavia,-45.8667,-67.5,64.26,27,0,11.5,AR,1680474718
264,madison,34.7334,-86.5667,71.67,29,0,3.0,US,1680474518
265,pochutla,15.7432,-96.4661,87.82,52,20,7.23,MX,1680474718
266,vanimo,-2.6741,141.3028,78.71,86,100,4.27,PG,1680474718
267,cedar city,37.6775,-113.0619,59.97,20,0,20.71,US,1680474619
268,san francisco,37.7749,-122.4194,61.05,68,75,29.93,US,1680474556
269,atar,20.5169,-13.0499,85.86,6,1,7.07,MR,1680474718
270,nago,26.5881,127.9761,65.25,68,68,25.17,JP,1680474718
271,mantua,45.1667,10.7833,56.01,84,43,1.01,IT,1680474718
272,songea,-10.6833,35.65,65.55,94,20,0.0,TZ,1680474718
273,mount gambier,-37.8333,140.7667,55.99,69,2,3.27,AU,1680474719
274,leshukonskoye,64.8989,45.7622,6.94,99,66,4.27,RU,1680474720
275,yumbe,3.4651,31.2469,67.57,82,35,2.95,UG,1680474720
276,talas,38.6908,35.5538,48.87,76,75,0.0,TR,1680474721
277,baghmara,23.795,86.2085,74.41,42,0,2.82,IN,1680474721
278,khani,41.9563,42.9566,44.17,78,88,2.08,GE,1680474721
279,pingliang,35.5392,106.6861,36.34,88,100,15.57,CN,1680474721
280,imbituba,-28.24,-48.6703,62.8,85,8,3.04,BR,1680474721
281,laguna,38.421,-121.4238,64.76,51,20,16.11,US,1680474722
282,kassala,15.451,36.4,77.27,26,72,8.95,SD,1680474722
283,ust-maya,60.4167,134.5333,3.11,98,100,1.88,RU,1680474722
284,bambous virieux,-20.3428,57.7575,79.21,89,75,6.91,MU,1680474722
285,villarrica,-25.75,-56.4333,72.32,28,0,4.74,PY,1680474722
286,kruisfontein,-34.0033,24.7314,65.88,79,99,7.63,ZA,1680474722
287,saint george,37.1041,-113.5841,71.94,20,0,7.0,US,1680474571
288,chai nat,15.1167,100.1,82.06,99,12,5.37,TH,1680474723
289,zhigansk,66.7697,123.3711,18.97,94,100,22.82,RU,1680474723
290,litovko,49.2361,135.1742,43.32,68,11,3.65,RU,1680474723
291,juarez,31.7333,-106.4833,79.61,8,0,18.41,MX,1680474668
292,resistencia,-27.4606,-58.9839,80.65,48,0,5.75,AR,1680474517
293,saint-ambroise,48.5501,-71.3324,21.74,45,64,17.27,CA,1680474723
294,coos bay,43.3665,-124.2179,46.99,74,75,17.27,US,1680474521
295,tupancireta,-29.0806,-53.8358,64.04,52,7,8.81,BR,1680474562
296,gonbad-e qabus,37.25,55.1672,47.79,57,97,3.53,IR,1680474724
297,mareeba,-17.0,145.4333,77.72,96,22,3.65,AU,1680474724
298,lorengau,-2.0226,147.2712,82.49,77,99,6.31,PG,1680474724
299,san ignacio,17.1561,-89.0714,93.34,38,75,11.5,BZ,1680474724
300,doha,25.2867,51.5333,66.09,50,0,12.66,QA,1680474584
301,klaksvik,62.2266,-6.589,43.72,82,100,9.46,FO,1680474619
302,roma,43.2128,-75.4557,39.34,37,0,5.75,US,1680474483
303,thinadhoo,0.5333,72.9333,81.45,72,5,3.31,MV,1680474724
304,borogontsy,62.6683,131.1683,6.4,94,61,5.44,RU,1680474724
305,bilibino,68.0546,166.4372,-7.06,98,98,2.75,RU,1680474724
306,hibbing,47.4272,-92.9377,43.95,42,100,3.44,US,1680474431
307,mayskiy,47.6931,40.1025,47.61,75,63,8.48,RU,1680474725
308,karakol,42.4907,78.3936,34.99,28,0,5.5,KG,1680474725
309,porto walter,-8.2686,-72.7439,73.98,99,83,2.1,BR,1680474725
310,axim,4.8699,-2.2405,78.3,91,36,2.26,GH,1680474726
311,taltal,-25.4,-70.4833,69.1,88,51,6.89,CL,1680474621
312,ahipara,-35.1667,173.1667,65.12,64,99,17.56,NZ,1680474726
313,flagstaff,35.1981,-111.6513,60.53,25,0,18.41,US,1680474587
314,albanel,48.8832,-72.4487,21.34,42,95,9.22,CA,1680474726
315,richards bay,-28.783,32.0377,72.77,82,58,15.12,ZA,1680474726
316,port-gentil,-0.7193,8.7815,82.36,79,75,8.05,GA,1680474726
317,northam,51.0333,-4.2167,46.26,84,100,5.88,GB,1680474710
318,ha giang,22.8333,104.9833,72.86,96,90,1.81,VN,1680474726
319,flinders,-34.5833,150.8552,69.06,87,68,4.0,AU,1680474726
320,patitirion,39.15,23.8667,56.37,79,100,2.35,GR,1680474727
321,chapais,49.7834,-74.8492,17.38,93,100,0.45,CA,1680474727
322,mehamn,71.0357,27.8492,26.51,86,20,14.97,NO,1680474727
323,pontianak,-0.0333,109.3333,75.18,94,20,3.44,ID,1680474727
324,hue,16.4667,107.6,75.31,88,40,3.44,VN,1680474727
325,saldanha,-33.0117,17.9442,64.45,90,84,11.21,ZA,1680474727
326,letka,59.6011,49.4232,36.39,97,100,4.18,RU,1680474727
327,pangnirtung,66.1451,-65.7125,2.91,80,100,6.15,CA,1680474727
328,freetown,8.484,-13.2299,80.31,89,40,8.05,SL,1680474728
329,hasaki,35.7333,140.8333,55.22,59,100,18.57,JP,1680474638
330,mecca,21.4267,39.8261,71.38,52,13,3.91,SA,1680474728
331,santa cruz,-17.8,-63.1667,87.26,66,20,6.91,BO,1680474604
332,balabac,7.9868,117.0645,78.66,81,100,2.15,PH,1680474728
333,saint-francois,46.4154,3.9054,44.04,93,100,11.5,FR,1680474728
334,bandarbeyla,9.4942,50.8122,80.89,76,40,4.74,SO,1680474728
335,novopetrovskoye,55.9928,36.4719,40.14,99,100,1.81,RU,1680474728
336,saint anthony,45.0205,-93.218,46.33,57,0,16.11,US,1680474728
337,havelock,34.8791,-76.9013,64.38,55,0,9.22,US,1680474728
338,iqaluit,63.7506,-68.5145,11.93,57,75,10.36,CA,1680474573
339,safita,34.8205,36.1153,51.64,78,27,3.67,SY,1680474729
340,thessalon,46.2501,-83.5666,35.89,83,100,10.78,CA,1680474629
341,strezhevoy,60.7333,77.5889,34.3,96,96,11.14,RU,1680474729
342,vao,-22.6667,167.4833,77.76,82,59,6.29,NC,1680474729
343,kieta,-6.2167,155.6333,84.65,69,66,3.87,PG,1680474730
344,westport,41.1415,-73.3579,51.1,22,0,11.5,US,1680474609
345,rabo de peixe,37.8,-25.5833,54.91,71,20,9.22,PT,1680474730
346,caravelas,-17.7125,-39.2481,78.51,77,70,9.24,BR,1680474730
347,dubbo,-32.25,148.6167,64.53,72,40,11.5,AU,1680474730
348,nanao,37.05,136.9667,53.31,74,0,11.34,JP,1680474730
349,ati,13.2154,18.3353,84.99,20,63,9.44,TD,1680474730
350,makakilo city,21.3469,-158.0858,78.01,76,20,6.91,US,1680474730
351,superior,46.7208,-92.1041,42.48,86,100,9.22,US,1680474730
352,marathon,44.9,-89.7668,51.55,64,0,13.8,US,1680474650
353,lavrentiya,65.5833,-171.0,6.15,72,25,0.96,RU,1680474731
354,sungairaya,0.7,108.9,76.84,87,99,2.89,ID,1680474731
355,caconda,-13.7333,15.0667,60.75,94,100,2.55,AO,1680474731
356,sterlibashevo,53.4376,55.2578,32.5,79,9,5.12,RU,1680474731
357,waipawa,-41.4122,175.5153,53.67,88,97,9.91,NZ,1680474732
358,general roca,-39.0333,-67.5833,68.63,36,96,13.04,AR,1680474732
359,boa vista,2.8197,-60.6733,85.98,48,40,11.5,BR,1680474732
360,karlshamn,56.1706,14.8619,28.89,78,36,9.15,SE,1680474732
361,praia da vitoria,38.7333,-27.0667,56.75,70,57,17.6,PT,1680474621
362,yokadouma,3.5167,15.05,72.5,70,9,2.28,CM,1680474732
363,santo domingo,18.5001,-69.9886,85.64,75,40,8.05,DO,1680474566
364,port hedland,-20.3167,118.5667,84.81,70,57,10.96,AU,1680474732
365,chicama,-7.8447,-79.1469,82.94,64,70,10.0,PE,1680474732
366,chokwe,-24.5333,32.9833,69.06,86,0,5.55,MZ,1680474732
367,ukiah,39.1502,-123.2078,57.36,66,100,10.36,US,1680474585
368,kargil,34.5667,76.1,22.46,83,98,0.87,IN,1680474733
369,sabha,27.0377,14.4283,69.57,11,0,12.68,LY,1680474733
370,salinas,36.6777,-121.6555,62.96,61,100,12.66,US,1680474734
371,omboue,-1.5746,9.2618,78.1,86,63,6.64,GA,1680474734
372,jiuquan,39.7432,98.5174,36.01,60,18,3.33,CN,1680474734
373,ambulu,-8.345,113.6058,75.06,91,100,2.93,ID,1680474735
374,rio gallegos,-51.6226,-69.2181,55.45,54,0,5.75,AR,1680474724
375,hays,30.0502,-98.0336,85.82,58,98,5.99,US,1680474735
376,whitehorse,60.7161,-135.0538,32.09,46,100,2.3,CA,1680474735
377,sao filipe,14.8961,-24.4956,76.28,61,0,14.41,CV,1680474735
378,oneonta,42.4529,-75.0638,38.3,36,7,6.22,US,1680474735
379,sasaram,24.951,84.0149,73.49,42,0,3.67,IN,1680474736
380,nisia floresta,-6.0911,-35.2086,81.41,81,98,4.83,BR,1680474736
381,tura,25.5198,90.2201,64.11,78,36,4.07,IN,1680474640
382,souillac,-20.5167,57.5167,79.18,89,75,6.91,MU,1680474736
383,pitimbu,-7.4706,-34.8086,81.19,74,74,6.93,BR,1680474736
384,nizwa,22.9333,57.5333,72.25,33,18,4.07,OM,1680474737
385,san andres,12.5847,-81.7006,86.02,66,20,16.11,CO,1680474737
386,port hawkesbury,45.6169,-61.3485,35.19,71,0,12.66,CA,1680474737
387,nueve de julio,-35.4444,-60.8831,65.97,68,99,1.99,AR,1680474737
388,dwarka,22.2394,68.9678,75.63,77,2,12.35,IN,1680474737
389,barabai,-2.5833,115.3833,74.16,97,96,1.23,ID,1680474737
390,oranjemund,-28.55,16.4333,63.27,78,88,9.93,NA,1680474737
391,lata,40.1629,-8.3327,54.91,76,99,2.28,PT,1680474737
392,mandali,33.7499,45.5541,56.7,44,3,6.04,IQ,1680474738
393,christchurch,-43.5333,172.6333,60.91,75,20,6.91,NZ,1680474626
394,aleksandrow kujawski,52.8766,18.6935,37.27,86,12,11.03,PL,1680474738
395,camargo,27.6667,-105.1667,87.96,4,100,16.93,MX,1680474738
396,chaozhou,23.6651,116.6379,64.26,76,25,4.45,CN,1680474738
397,sao jose da coroa grande,-8.8978,-35.1478,79.18,78,100,6.15,BR,1680474738
398,kiama,-34.6833,150.8667,69.26,83,70,1.01,AU,1680474739
399,palasa,18.7667,84.4167,76.26,88,34,3.87,IN,1680474739
400,pyu,18.4833,96.4333,72.48,67,63,0.89,MM,1680474739
401,faanui,-16.4833,-151.75,82.89,69,100,7.05,PF,1680474739
402,buala,-8.145,159.5921,83.88,72,100,8.88,SB,1680474731
403,padang,-0.9492,100.3543,75.25,92,100,1.97,ID,1680474739
404,bud,39.447,-86.1758,58.89,53,6,10.0,US,1680474739
405,rivadavia,-33.1905,-68.4608,73.4,43,0,7.34,AR,1680474660
406,tottori,35.5,134.2333,44.67,87,75,3.44,JP,1680474444
407,koumac,-20.5667,164.2833,83.86,62,7,3.33,NC,1680474740
408,san javier,37.8063,-0.8374,61.05,52,0,5.01,ES,1680474740
409,vila franca do campo,37.7167,-25.4333,55.81,60,32,13.6,PT,1680474740
410,najran,17.4924,44.1277,66.85,51,88,11.39,SA,1680474740
411,portland,45.5234,-122.6762,47.21,86,100,8.05,US,1680474740
412,bubaque,11.2833,-15.8333,78.12,78,2,15.66,GW,1680474740
413,dzhebariki-khaya,62.2167,135.8,7.21,93,96,4.7,RU,1680474740
414,belmonte,-15.8631,-38.8828,78.98,78,21,7.34,BR,1680474635
415,newcastle,-32.9272,151.7765,64.71,99,75,5.75,AU,1680474685
416,the pas,53.8251,-101.2541,19.42,45,0,8.05,CA,1680474741
417,vila velha,-20.3297,-40.2925,77.95,72,0,10.36,BR,1680474741
418,powell river,49.8496,-124.5361,44.33,100,100,4.61,CA,1680474741
419,sipe sipe,-17.45,-66.3833,75.69,54,7,2.68,BO,1680474741
420,katsuura,35.1333,140.3,51.82,72,100,19.71,JP,1680474741
421,japura,-0.3167,102.35,73.08,99,100,2.35,ID,1680474741
422,dzaoudzi,-12.7887,45.2699,76.89,94,0,3.44,YT,1680474742
423,dovolnoye,54.4958,79.6671,18.05,84,51,7.54,RU,1680474742
424,ban nahin,18.2418,104.2122,72.16,93,25,2.75,LA,1680474742
425,deputatskiy,69.3,139.9,-1.12,83,92,2.57,RU,1680474742
426,rapar,23.5667,70.6333,75.78,75,14,16.51,IN,1680474743
427,tripoli,32.8752,13.1875,59.34,62,77,19.33,LY,1680474743
428,hluti,-27.2167,31.6167,65.1,98,34,3.42,SZ,1680474744
429,ndele,8.4109,20.6473,80.31,18,5,3.8,CF,1680474744
430,zabid,14.1951,43.3152,77.81,80,47,9.6,YE,1680474744
431,doka,13.5167,35.7667,80.69,11,36,13.13,SD,1680474744
432,hojai,26.0,92.8667,64.63,85,4,0.65,IN,1680474744
433,auch,43.65,0.5833,51.26,83,95,4.0,FR,1680474744
434,teeli,51.0333,90.2333,9.7,36,8,3.38,RU,1680474744
435,siruguppa,15.6333,76.9,76.15,42,64,0.67,IN,1680474745
436,oksfjord,70.2396,22.3479,32.18,80,78,8.9,NO,1680474745
437,nemuro,43.3236,145.575,34.39,69,0,12.8,JP,1680474745
438,torres,-29.3353,-49.7269,62.83,73,5,1.57,BR,1680474745
439,guerrero negro,27.9769,-114.0611,60.04,74,3,21.14,MX,1680474745
440,ossora,59.2353,163.0719,28.13,89,100,3.0,RU,1680474745
441,antalaha,-14.9003,50.2788,74.35,93,100,3.18,MG,1680474745
442,moerai,-22.4333,-151.3333,72.63,88,100,6.69,PF,1680474745
443,parga,39.2831,20.3964,55.72,72,100,4.81,GR,1680474745
444,xichang,27.8964,102.2634,49.89,72,3,2.71,CN,1680474746
445,goderich,43.7501,-81.7165,40.91,48,40,11.5,CA,1680474746
446,coruripe,-10.1256,-36.1756,79.21,78,100,10.09,BR,1680474746
447,saint-georges,12.0564,-61.7485,80.28,78,20,20.71,GD,1680474746
448,warri,5.5167,5.75,78.21,89,99,4.32,NG,1680474746
449,troyes,48.3333,4.0833,43.57,87,100,11.5,FR,1680474746
450,baykalovo,57.3981,63.7684,32.94,82,77,6.64,RU,1680474746
451,cotonou,6.3654,2.4183,81.57,79,35,6.69,BJ,1680474747
452,altay,47.8667,88.1167,11.1,48,0,11.65,CN,1680474747
453,tupelo,34.2576,-88.7034,75.49,27,0,12.66,US,1680474747
454,mehran,33.1222,46.1646,57.67,41,3,5.57,IR,1680474747
455,krasnoselkup,65.7,82.4667,24.39,96,100,9.98,RU,1680474700
456,la sarre,48.8002,-79.1996,31.75,86,100,10.83,CA,1680474606
457,moctezuma,29.8,-109.6667,84.81,8,0,7.85,MX,1680474748
458,choya,52.0108,86.5467,18.55,86,100,3.33,RU,1680474748
459,asfi,32.2994,-9.2372,60.39,92,0,22.66,MA,1680474748
460,ayan,56.45,138.1667,19.0,69,84,5.93,RU,1680474748
461,ranong,9.9658,98.6348,75.13,81,22,3.49,TH,1680474748
462,avera,33.194,-82.5271,75.25,49,70,4.41,US,1680474748
463,mayya,61.7333,130.2811,0.72,88,23,4.21,RU,1680474748
464,gondanglegi,-7.7479,112.0132,73.63,87,100,2.35,ID,1680474680
465,okha,53.5739,142.9478,29.43,81,100,4.36,RU,1680474748
466,la rioja,42.25,-2.5,38.98,96,41,4.21,ES,1680474748
467,banikoara,11.2985,2.4386,85.06,11,16,5.17,BJ,1680474748
468,bairnsdale,-37.8333,147.6167,53.06,96,3,1.86,AU,1680474749
469,khaga,25.7833,81.1167,72.82,47,4,2.66,IN,1680474749
470,ilo,-17.6394,-71.3375,69.57,89,21,3.6,PE,1680474749
471,bend,44.0582,-121.3153,42.66,50,0,16.11,US,1680474671
472,san quintin,30.4833,-115.95,59.45,72,0,19.82,MX,1680474749
473,el dorado,38.7666,-120.5177,50.58,92,100,5.99,US,1680474656
474,alice springs,-23.7,133.8833,70.21,58,77,8.05,AU,1680474651
475,la palma,33.8464,-118.0467,74.66,59,0,10.36,US,1680474749
476,palmer,42.1584,-72.3287,46.65,23,20,16.11,US,1680474591
477,caarapo,-22.6342,-54.8222,71.87,86,24,5.06,BR,1680474749
478,whitianga,-36.8333,175.7,66.81,59,4,9.82,NZ,1680474749
479,ozinki,51.1786,49.6769,44.37,54,3,8.39,RU,1680474750
480,shiyan,32.6475,110.7781,60.76,96,100,1.63,CN,1680474750
481,sokoto,13.0609,5.239,80.85,9,8,9.91,NG,1680474750
482,santa ines,-3.6667,-45.38,73.81,96,98,2.1,BR,1680474750
483,ventspils,57.3894,21.5606,31.93,69,0,6.91,LV,1680474750
484,bardiyah,31.7561,25.0865,66.97,42,21,16.58,LY,1680474750
485,akureyri,65.6835,-18.0878,37.33,70,0,9.22,IS,1680474750
486,fengrun,39.8333,118.1167,52.81,39,100,4.23,CN,1680474750
487,sete lagoas,-19.4658,-44.2467,78.08,91,83,3.02,BR,1680474751
488,forfar,56.6431,-2.8903,40.75,84,88,3.13,GB,1680474751
489,yar-sale,66.8333,70.8333,11.7,86,26,10.76,RU,1680474751
490,byron bay,-28.65,153.6167,66.7,84,50,8.55,AU,1680474751
491,zabol,32.25,67.25,49.75,72,62,9.44,AF,1680474751
492,kloulklubed,7.0419,134.2556,77.5,70,22,2.66,PW,1680474751
493,longyearbyen,78.2186,15.6401,17.44,93,75,3.44,SJ,1680474600
494,bulancak,40.9372,38.2291,53.42,82,75,4.61,TR,1680474751
495,morondava,-20.2833,44.2833,76.86,88,37,4.32,MG,1680474751
496,broken hill,-31.95,141.4333,60.37,34,88,6.02,AU,1680474688
497,treinta y tres,-33.2333,-54.3833,63.63,59,98,7.47,UY,1680474656
498,pocao de pedras,-4.6667,-44.85,73.02,96,100,1.34,BR,1680474752
499,arman,59.7,150.1667,21.02,74,28,9.6,RU,1680474752
500,mana,5.6592,-53.7767,76.68,84,87,9.48,GF,1680474651
501,myaundzha,63.0494,147.1858,-3.5,87,56,3.62,RU,1680474752
502,bull savanna,17.8868,-77.5902,77.59,71,42,2.89,JM,1680474752
503,upata,8.0086,-62.3989,78.19,60,74,9.33,VE,1680474752
504,derzhavinsk,51.1,66.3167,35.33,62,0,12.62,KZ,1680474752
505,changji,44.0167,87.3167,29.19,43,0,4.47,CN,1680474753
506,douentza,14.9951,-2.9517,81.84,8,2,4.5,ML,1680474753
507,havoysund,70.9963,24.6622,32.23,78,99,11.32,NO,1680474753
508,corbelia,-24.7989,-53.3067,74.55,73,0,2.35,BR,1680474753
509,provideniya,64.3833,-173.3,10.51,56,75,4.47,RU,1680474636
510,saint-augustin,51.226,-58.6502,30.56,98,100,3.11,CA,1680474753
511,ormond beach,29.2858,-81.0559,85.15,61,0,9.22,US,1680474610
512,caxito,-8.5785,13.6643,75.92,96,36,2.57,AO,1680474753
513,ushumun,52.7833,126.5333,35.71,94,100,5.79,RU,1680474753
514,garissa,-0.4536,39.6401,80.49,75,23,14.85,KE,1680474754
515,hinova,44.5406,22.7769,47.39,84,12,4.47,RO,1680474755
516,mahoba,25.2833,79.8667,75.9,45,21,2.73,IN,1680474755
517,robertsport,6.7533,-11.3686,80.06,86,5,5.48,LR,1680474755
518,tairua,-37.0167,175.85,67.32,59,5,7.78,NZ,1680474611
519,qostanay,53.1667,63.5833,35.89,75,0,8.95,KZ,1680474755
520,honiara,-9.4333,159.95,85.78,70,95,5.7,SB,1680474755
521,ishigaki,24.3448,124.1572,62.73,88,40,3.44,JP,1680474755
522,los llanos de aridane,28.6585,-17.9182,66.13,74,75,16.11,ES,1680474713
523,polunochnoye,60.8697,60.4153,27.63,97,98,2.24,RU,1680474755
524,ravar,31.2656,56.8055,52.27,21,0,0.81,IR,1680474755
525,balogo,10.8868,124.7105,76.66,83,94,2.71,PH,1680474756
526,viedma,-40.8135,-62.9967,61.43,74,100,11.21,AR,1680474753
527,ikalamavony,-21.15,46.5833,66.54,92,73,4.29,MG,1680474756
528,ziparion,36.875,27.2042,63.52,77,20,14.97,GR,1680474756
529,evensk,61.95,159.2333,16.45,72,100,12.55,RU,1680474756
530,tezu,27.9167,96.1667,60.31,93,100,4.59,IN,1680474756
531,xiongyue,40.1774,122.1228,52.03,43,85,7.43,CN,1680474756
532,gumla,23.05,84.55,68.76,43,4,3.51,IN,1680474756
533,erenhot,43.6475,111.9767,28.9,53,100,13.49,CN,1680474756
534,ciudad bolivar,8.1222,-63.5497,88.02,46,93,15.82,VE,1680474741
535,geraldton,-28.7667,114.6,63.01,94,40,5.75,AU,1680474756
536,sandnessjoen,66.0217,12.6316,31.64,47,99,3.0,NO,1680474756
537,cairns,-16.9167,145.7667,82.35,83,24,3.44,AU,1680474685
538,vestmanna,62.1564,-7.1664,41.92,87,100,11.5,FO,1680474757
539,nome,64.5011,-165.4064,9.1,78,0,10.36,US,1680474526
540,victor harbor,-35.5667,138.6167,59.49,59,72,4.03,AU,1680474757
541,sinnar,13.5691,33.5672,79.39,11,31,11.21,SD,1680474757
542,grindavik,63.8424,-22.4338,39.67,87,100,14.97,IS,1680474549
543,palm valley,30.1775,-81.3876,85.05,53,98,3.06,US,1680474757
544,honningsvag,70.9821,25.9704,31.75,74,40,13.8,NO,1680474757
545,ancona,43.55,13.1667,53.47,77,75,5.99,IT,1680474757
546,itarema,-2.9248,-39.9167,75.85,88,100,3.83,BR,1680474757
547,kota,25.1833,75.8333,77.74,32,57,6.31,IN,1680474757
548,adrar,20.5022,-10.0711,77.23,5,0,6.42,MR,1680474758
549,puerto ayacucho,5.6639,-67.6236,89.91,41,100,7.27,VE,1680474758
550,kot kapura,30.5833,74.9,63.52,85,100,5.59,IN,1680474758
551,terre haute,39.4667,-87.4139,58.96,53,0,16.11,US,1680474758
552,garden city,42.3256,-83.331,47.91,61,75,13.8,US,1680474651
553,weligama,5.9667,80.4167,75.4,90,13,3.13,LK,1680474758
554,storforshei,66.4043,14.5233,19.18,67,100,3.44,NO,1680474664
555,bundaberg,-24.85,152.35,71.22,87,100,5.01,AU,1680474758
556,kusti,13.1629,32.6635,75.16,11,55,11.05,SD,1680474758
557,antofagasta,-23.65,-70.4,72.68,81,45,4.68,CL,1680474464
558,ongole,15.5,80.05,80.4,84,92,6.96,IN,1680474758
559,key west,24.5557,-81.7826,84.0,74,75,4.61,US,1680474504
